[{"case_date":"2020-03-24","kab_id":"3578","kab_name":"Kota Surabaya","lat":-7.28,"lng":112.72,"pdp":"10","odp":"182","death":"0","positive":"31","t":"223"},{"case_date":"2020-03-24","kab_id":"3504","kab_name":"Tulungagung","lat":-8.11,"lng":111.89,"pdp":"18","odp":"204","death":"0","positive":"0","t":"222"},{"case_date":"2020-03-24","kab_id":"3511","kab_name":"Bondowoso","lat":-7.94,"lng":113.95,"pdp":"0","odp":"107","death":"0","positive":"0","t":"107"},{"case_date":"2020-03-24","kab_id":"3505","kab_name":"Blitar","lat":-8.13,"lng":112.24,"pdp":"1","odp":"100","death":"0","positive":"1","t":"102"},{"case_date":"2020-03-24","kab_id":"3509","kab_name":"Jember","lat":-8.24,"lng":113.66,"pdp":"7","odp":"93","death":"0","positive":"0","t":"100"},{"case_date":"2020-03-24","kab_id":"3512","kab_name":"Situbondo","lat":-7.8,"lng":114.05,"pdp":"3","odp":"91","death":"0","positive":"0","t":"94"},{"case_date":"2020-03-24","kab_id":"3501","kab_name":"Pacitan","lat":-8.13,"lng":111.18,"pdp":"2","odp":"89","death":"0","positive":"0","t":"91"},{"case_date":"2020-03-24","kab_id":"3502","kab_name":"Ponorogo","lat":-7.93,"lng":111.5,"pdp":"7","odp":"81","death":"0","positive":"0","t":"88"},{"case_date":"2020-03-24","kab_id":"3510","kab_name":"Banyuwangi","lat":-8.36,"lng":114.21,"pdp":"1","odp":"70","death":"0","positive":"0","t":"71"},{"case_date":"2020-03-24","kab_id":"3516","kab_name":"Mojokerto","lat":-7.55,"lng":112.49,"pdp":"5","odp":"64","death":"0","positive":"0","t":"69"},{"case_date":"2020-03-24","kab_id":"3526","kab_name":"Bangkalan","lat":-7.04,"lng":112.93,"pdp":"1","odp":"58","death":"0","positive":"0","t":"59"},{"case_date":"2020-03-24","kab_id":"3576","kab_name":"Kota Mojokerto","lat":-7.47,"lng":112.44,"pdp":"3","odp":"55","death":"0","positive":"0","t":"58"},{"case_date":"2020-03-24","kab_id":"3503","kab_name":"Trenggalek","lat":-8.16,"lng":111.63,"pdp":"3","odp":"50","death":"0","positive":"0","t":"53"},{"case_date":"2020-03-24","kab_id":"3572","kab_name":"Kota Blitar","lat":-8.1,"lng":112.17,"pdp":"1","odp":"49","death":"0","positive":"0","t":"50"},{"case_date":"2020-03-24","kab_id":"3523","kab_name":"Tuban","lat":-6.95,"lng":111.89,"pdp":"1","odp":"48","death":"0","positive":"0","t":"49"},{"case_date":"2020-03-24","kab_id":"3525","kab_name":"Gresik","lat":-6.93,"lng":112.56,"pdp":"9","odp":"40","death":"0","positive":"0","t":"49"},{"case_date":"2020-03-24","kab_id":"3508","kab_name":"Lumajang","lat":-8.13,"lng":113.14,"pdp":"5","odp":"36","death":"0","positive":"0","t":"41"},{"case_date":"2020-03-24","kab_id":"3524","kab_name":"Lamongan","lat":-7.13,"lng":112.3,"pdp":"2","odp":"39","death":"0","positive":"0","t":"41"},{"case_date":"2020-03-24","kab_id":"3528","kab_name":"Pamekasan","lat":-7.07,"lng":113.5,"pdp":"1","odp":"40","death":"0","positive":"0","t":"41"},{"case_date":"2020-03-24","kab_id":"3513","kab_name":"Probolinggo","lat":-7.87,"lng":113.32,"pdp":"2","odp":"38","death":"0","positive":"0","t":"40"},{"case_date":"2020-03-24","kab_id":"3579","kab_name":"Kota Batu","lat":-7.83,"lng":112.53,"pdp":"0","odp":"40","death":"0","positive":"0","t":"40"},{"case_date":"2020-03-24","kab_id":"3515","kab_name":"Sidoarjo","lat":-7.45,"lng":112.7,"pdp":"14","odp":"21","death":"0","positive":"5","t":"40"},{"case_date":"2020-03-24","kab_id":"3521","kab_name":"Ngawi","lat":-7.4399999999999995,"lng":111.34,"pdp":"4","odp":"35","death":"0","positive":"0","t":"39"},{"case_date":"2020-03-24","kab_id":"3574","kab_name":"Kota Probolinggo","lat":-7.78,"lng":113.21,"pdp":"1","odp":"33","death":"0","positive":"0","t":"34"},{"case_date":"2020-03-24","kab_id":"3522","kab_name":"Bojonegoro","lat":-7.26,"lng":111.81,"pdp":"0","odp":"33","death":"0","positive":"0","t":"33"},{"case_date":"2020-03-24","kab_id":"3519","kab_name":"Madiun","lat":-7.62,"lng":111.65,"pdp":"2","odp":"30","death":"0","positive":"0","t":"32"},{"case_date":"2020-03-24","kab_id":"3517","kab_name":"Jombang","lat":-7.55,"lng":112.27,"pdp":"3","odp":"28","death":"0","positive":"0","t":"31"},{"case_date":"2020-03-24","kab_id":"3520","kab_name":"Magetan","lat":-7.66,"lng":111.36,"pdp":"7","odp":"15","death":"0","positive":"8","t":"30"},{"case_date":"2020-03-24","kab_id":"3507","kab_name":"Malang","lat":-8.13,"lng":112.64,"pdp":"8","odp":"17","death":"0","positive":"4","t":"29"},{"case_date":"2020-03-24","kab_id":"3527","kab_name":"Sampang","lat":-7.05,"lng":113.26,"pdp":"0","odp":"29","death":"0","positive":"0","t":"29"},{"case_date":"2020-03-24","kab_id":"3506","kab_name":"Kediri","lat":-7.83,"lng":112.09,"pdp":"4","odp":"23","death":"0","positive":"0","t":"27"},{"case_date":"2020-03-24","kab_id":"3573","kab_name":"Kota Malang","lat":-7.98,"lng":112.64,"pdp":"5","odp":"11","death":"0","positive":"2","t":"18"},{"case_date":"2020-03-24","kab_id":"3529","kab_name":"Sumenep","lat":-6.97,"lng":114.41,"pdp":"0","odp":"14","death":"0","positive":"0","t":"14"},{"case_date":"2020-03-24","kab_id":"3575","kab_name":"Kota Pasuruan","lat":-7.65,"lng":112.91,"pdp":"0","odp":"11","death":"0","positive":"0","t":"11"},{"case_date":"2020-03-24","kab_id":"3518","kab_name":"Nganjuk","lat":-7.6,"lng":111.94,"pdp":"2","odp":"9","death":"0","positive":"0","t":"11"},{"case_date":"2020-03-24","kab_id":"3514","kab_name":"Pasuruan","lat":-7.74,"lng":112.83,"pdp":"5","odp":"2","death":"0","positive":"0","t":"7"},{"case_date":"2020-03-24","kab_id":"3577","kab_name":"Kota Madiun","lat":-7.63,"lng":111.53,"pdp":"4","odp":"3","death":"0","positive":"0","t":"7"},{"case_date":"2020-03-24","kab_id":"3571","kab_name":"Kota Kediri","lat":-7.83,"lng":112.01,"pdp":"0","odp":"4","death":"0","positive":"0","t":"4"}]