[
  {
    "kab_id": 3501,
    "odp": 89,
    "lat": -8.126213,
    "kab_name": "Pacitan",
    "case_date": "2020-03-24",
    "death": 0,
    "pdp": 2,
    "positive": 0,
    "lng": 111.179056
  },
  {
    "kab_id": 3502,
    "odp": 81,
    "lat": -7.93132,
    "kab_name": "Ponorogo",
    "case_date": "2020-03-24",
    "death": 0,
    "pdp": 7,
    "positive": 0,
    "lng": 111.499366
  },
  {
    "kab_id": 3503,
    "odp": 50,
    "lat": -8.16184,
    "kab_name": "Trenggalek",
    "case_date": "2020-03-24",
    "death": 0,
    "pdp": 3,
    "positive": 0,
    "lng": 111.626213
  },
  {
    "kab_id": 3504,
    "odp": 204,
    "lat": -8.113255,
    "kab_name": "Tulungagung",
    "case_date": "2020-03-24",
    "death": 0,
    "pdp": 18,
    "positive": 0,
    "lng": 111.887202
  },
  {
    "kab_id": 3505,
    "odp": 100,
    "lat": -8.130109,
    "kab_name": "Blitar",
    "case_date": "2020-03-24",
    "death": 0,
    "pdp": 1,
    "positive": 1,
    "lng": 112.23813
  },
  {
    "kab_id": 3506,
    "odp": 23,
    "lat": -7.828871,
    "kab_name": "Kediri",
    "case_date": "2020-03-24",
    "death": 0,
    "pdp": 4,
    "positive": 0,
    "lng": 112.089636
  },
  {
    "kab_id": 3507,
    "odp": 17,
    "lat": -8.126768,
    "kab_name": "Malang",
    "case_date": "2020-03-24",
    "death": 0,
    "pdp": 8,
    "positive": 4,
    "lng": 112.641012
  },
  {
    "kab_id": 3508,
    "odp": 36,
    "lat": -8.125301,
    "kab_name": "Lumajang",
    "case_date": "2020-03-24",
    "death": 0,
    "pdp": 5,
    "positive": 0,
    "lng": 113.137574
  },
  {
    "kab_id": 3509,
    "odp": 93,
    "lat": -8.235978,
    "kab_name": "Jember",
    "case_date": "2020-03-24",
    "death": 0,
    "pdp": 7,
    "positive": 0,
    "lng": 113.655695
  },
  {
    "kab_id": 3510,
    "odp": 70,
    "lat": -8.364862,
    "kab_name": "Banyuwangi",
    "case_date": "2020-03-24",
    "death": 0,
    "pdp": 1,
    "positive": 0,
    "lng": 114.205416
  },
  {
    "kab_id": 3511,
    "odp": 107,
    "lat": -7.944023,
    "kab_name": "Bondowoso",
    "case_date": "2020-03-24",
    "death": 0,
    "pdp": 0,
    "positive": 0,
    "lng": 113.947551
  },
  {
    "kab_id": 3512,
    "odp": 91,
    "lat": -7.801378,
    "kab_name": "Situbondo",
    "case_date": "2020-03-24",
    "death": 0,
    "pdp": 3,
    "positive": 0,
    "lng": 114.052406
  },
  {
    "kab_id": 3513,
    "odp": 38,
    "lat": -7.866673,
    "kab_name": "Probolinggo",
    "case_date": "2020-03-24",
    "death": 0,
    "pdp": 2,
    "positive": 0,
    "lng": 113.320963
  },
  {
    "kab_id": 3514,
    "odp": 2,
    "lat": -7.743181,
    "kab_name": "Pasuruan",
    "case_date": "2020-03-24",
    "death": 0,
    "pdp": 5,
    "positive": 0,
    "lng": 112.831559
  },
  {
    "kab_id": 3515,
    "odp": 21,
    "lat": -7.451632,
    "kab_name": "Sidoarjo",
    "case_date": "2020-03-24",
    "death": 0,
    "pdp": 14,
    "positive": 5,
    "lng": 112.700281
  },
  {
    "kab_id": 3516,
    "odp": 64,
    "lat": -7.549868,
    "kab_name": "Mojokerto",
    "case_date": "2020-03-24",
    "death": 0,
    "pdp": 5,
    "positive": 0,
    "lng": 112.485249
  },
  {
    "kab_id": 3517,
    "odp": 28,
    "lat": -7.545102,
    "kab_name": "Jombang",
    "case_date": "2020-03-24",
    "death": 0,
    "pdp": 3,
    "positive": 0,
    "lng": 112.26513
  },
  {
    "kab_id": 3518,
    "odp": 9,
    "lat": -7.597423,
    "kab_name": "Nganjuk",
    "case_date": "2020-03-24",
    "death": 0,
    "pdp": 2,
    "positive": 0,
    "lng": 111.938439
  },
  {
    "kab_id": 3519,
    "odp": 30,
    "lat": -7.624222,
    "kab_name": "Madiun",
    "case_date": "2020-03-24",
    "death": 0,
    "pdp": 2,
    "positive": 0,
    "lng": 111.645716
  },
  {
    "kab_id": 3520,
    "odp": 15,
    "lat": -7.662881,
    "kab_name": "Magetan",
    "case_date": "2020-03-24",
    "death": 0,
    "pdp": 7,
    "positive": 8,
    "lng": 111.357902
  },
  {
    "kab_id": 3521,
    "odp": 35,
    "lat": -7.439239,
    "kab_name": "Ngawi",
    "case_date": "2020-03-24",
    "death": 0,
    "pdp": 4,
    "positive": 0,
    "lng": 111.34309
  },
  {
    "kab_id": 3522,
    "odp": 33,
    "lat": -7.255433,
    "kab_name": "Bojonegoro",
    "case_date": "2020-03-24",
    "death": 0,
    "pdp": 0,
    "positive": 0,
    "lng": 111.809837
  },
  {
    "kab_id": 3523,
    "odp": 48,
    "lat": -6.953157,
    "kab_name": "Tuban",
    "case_date": "2020-03-24",
    "death": 0,
    "pdp": 1,
    "positive": 0,
    "lng": 111.891486
  },
  {
    "kab_id": 3524,
    "odp": 39,
    "lat": -7.131199,
    "kab_name": "Lamongan",
    "case_date": "2020-03-24",
    "death": 0,
    "pdp": 2,
    "positive": 0,
    "lng": 112.300783
  },
  {
    "kab_id": 3525,
    "odp": 40,
    "lat": -6.927913,
    "kab_name": "Gresik",
    "case_date": "2020-03-24",
    "death": 0,
    "pdp": 9,
    "positive": 0,
    "lng": 112.558335
  },
  {
    "kab_id": 3526,
    "odp": 58,
    "lat": -7.043867,
    "kab_name": "Bangkalan",
    "case_date": "2020-03-24",
    "death": 0,
    "pdp": 1,
    "positive": 0,
    "lng": 112.93019
  },
  {
    "kab_id": 3527,
    "odp": 29,
    "lat": -7.052257,
    "kab_name": "Sampang",
    "case_date": "2020-03-24",
    "death": 0,
    "pdp": 0,
    "positive": 0,
    "lng": 113.256085
  },
  {
    "kab_id": 3528,
    "odp": 40,
    "lat": -7.06526,
    "kab_name": "Pamekasan",
    "case_date": "2020-03-24",
    "death": 0,
    "pdp": 1,
    "positive": 0,
    "lng": 113.503889
  },
  {
    "kab_id": 3529,
    "odp": 14,
    "lat": -6.966551,
    "kab_name": "Sumenep",
    "case_date": "2020-03-24",
    "death": 0,
    "pdp": 0,
    "positive": 0,
    "lng": 114.405247
  },
  {
    "kab_id": 3571,
    "odp": 4,
    "lat": -7.826306,
    "kab_name": "Kota Kediri",
    "case_date": "2020-03-24",
    "death": 0,
    "pdp": 0,
    "positive": 0,
    "lng": 112.013838
  },
  {
    "kab_id": 3572,
    "odp": 49,
    "lat": -8.095025,
    "kab_name": "Kota Blitar",
    "case_date": "2020-03-24",
    "death": 0,
    "pdp": 1,
    "positive": 0,
    "lng": 112.166997
  },
  {
    "kab_id": 3574,
    "odp": 33,
    "lat": -7.77507,
    "kab_name": "Kota Probolinggo",
    "case_date": "2020-03-24",
    "death": 0,
    "pdp": 1,
    "positive": 0,
    "lng": 113.205322
  },
  {
    "kab_id": 3575,
    "odp": 11,
    "lat": -7.649963,
    "kab_name": "Kota Pasuruan",
    "case_date": "2020-03-24",
    "death": 0,
    "pdp": 0,
    "positive": 0,
    "lng": 112.909694
  },
  {
    "kab_id": 3576,
    "odp": 55,
    "lat": -7.471313,
    "kab_name": "Kota Mojokerto",
    "case_date": "2020-03-24",
    "death": 0,
    "pdp": 3,
    "positive": 0,
    "lng": 112.437436
  },
  {
    "kab_id": 3577,
    "odp": 3,
    "lat": -7.627983,
    "kab_name": "Kota Madiun",
    "case_date": "2020-03-24",
    "death": 0,
    "pdp": 4,
    "positive": 0,
    "lng": 111.528177
  },
  {
    "kab_id": 3578,
    "odp": 182,
    "lat": -7.275388,
    "kab_name": "Kota Surabaya",
    "case_date": "2020-03-24",
    "death": 0,
    "pdp": 10,
    "positive": 31,
    "lng": 112.722672
  },
  {
    "kab_id": 3579,
    "odp": 40,
    "lat": -7.833109,
    "kab_name": "Kota Batu",
    "case_date": "2020-03-24",
    "death": 0,
    "pdp": 0,
    "positive": 0,
    "lng": 112.53112
  },
  {
    "kab_id": 3573,
    "odp": 11,
    "lat": -7.978964,
    "kab_name": "Kota Malang",
    "case_date": "2020-03-24",
    "death": 0,
    "pdp": 5,
    "positive": 2,
    "lng": 112.63638
  }
]
